[
  {
    "Id": 401697,
    "aluno": "Nicole Verçosa De Araújo",
    "professor": "Barbara Maria Moreira De Moura",
    "municipio": "Xapuri",
    "uf": "AC",
    "escola": "Esc Santa Clara",
    "trecho": "Um dia na minha terra\nA noite chega junto à escuridão\nAs famílias se reúnem ao redor do lampião\nNo Polo da Variante temos muita emoção\nNão vendo e nem abro mão.",
    "Latitude": -10.6113278,
    "Longitude": -69.136738,
    "icon": "menina1.png"
  },
  {
    "Id": 398163,
    "aluno": "Luiz Eduardo Da Silva",
    "professor": "Evandro Severiano Da Silva",
    "municipio": "Capela",
    "uf": "AL",
    "escola": "Escola Mul De Educ Bas Gov Geraldo M De Melo",
    "trecho": "Um povo muito guerreiro\nDe muita fé e devoção\nSob o olhar da padroeira\nA virgem da Conceição",
    "Latitude": -9.4106025,
    "Longitude": -36.0897909,
    "icon": "menino2.png"
  },
  {
    "Id": 401396,
    "aluno": "Nickolas Henrique Gomes Da Silva",
    "professor": "Geraldo Ribeiro Bessa Neto",
    "municipio": "Rio Largo",
    "uf": "AL",
    "escola": "Emef Marieta Leao",
    "trecho": "O lugar dessa ave é na natureza\nVivendo livre e sem tristeza\nE quem sabe um dia\nDa janela da minha casa\nPossa vê-la cantar com destreza",
    "Latitude": -9.4822461,
    "Longitude": -35.9347256,
    "icon": "menino1.png"
  },
  {
    "Id": 426948,
    "aluno": "Heloisa Bernardo De Moura",
    "professor": "Antonio De Souza Braga",
    "municipio": "Manaus",
    "uf": "AM",
    "escola": "Em Santa Etelvina",
    "trecho": "Teus cheiros, cores e sabores,\nTão ricos de diversos amores,\nSó posso aconselhar o açaí, buriti e o jaraqui,\nPois prove parente e não sairá daqui.",
    "Latitude": -3.0443101,
    "Longitude": -60.1071889,
    "icon": "menina2.png"
  },
  {
    "Id": 414.934,
    "aluno": "Maria Vitória Cunha Sales",
    "professor": "Cintia Maria Guedes Lima",
    "municipio": "Careiro da Várzea",
    "uf": "AM",
    "escola": "",
    "trecho": "Vou contar uma história\nDe um lugar muito bonito.\nLugar de gente que trabalha\nE que honra seu ofício!",
    "Latitude": -3.1983194,
    "Longitude": -59.8253532,
    "icon": "menina1.png"
  },
  {
    "Id": 419315,
    "aluno": "Jânisson Videira Ramos Da Cunha",
    "professor": "Ruthe Dias Lira",
    "municipio": "Mazagão",
    "uf": "AP",
    "escola": "Escola Centro De Atendimento Infantil Vó Olga",
    "trecho": "Eu amo meu Mazagão\nEle está em meu coração\nDas terras desse lugar\nMinha família ganha o pão",
    "Latitude": -0.1149661,
    "Longitude": -51.2999535,
    "icon": "menino2.png"
  },
  {
    "Id": 417565,
    "aluno": "Ana Maryah Spínola Rocha",
    "professor": "Adriano De Azevedo Oliveira",
    "municipio": "Presidente Jânio Quadros",
    "uf": "BA",
    "escola": "Colegio Municipal Plauto Alves Brito",
    "trecho": "Aqui tem um povo esperto\nfez logo crescer o arraial,\ncom agropecuária e o comércio\no sonho tornou real.",
    "Latitude": -14.6879795,
    "Longitude": -41.6806209,
    "icon": "menina1.png"
  },
  {
    "Id": 419419,
    "aluno": "Fernanda De Almeida Moura",
    "professor": "Arlete Ferreira De Souza",
    "municipio": "Bom Jesus da Lapa",
    "uf": "BA",
    "escola": "Escola Municipal Professora Martinha Gonçalves",
    "trecho": "Este lugar onde vivo\nÉ cheio de magia\nos pássaros cantam nas praças\nfazendo uma bela sinfonia.",
    "Latitude": -13.2807226,
    "Longitude": -43.8662715,
    "icon": "menina2.png"
  },
  {
    "Id": 391167,
    "aluno": "Geovana Teixeira Souza",
    "professor": "Normaci Soares Martins",
    "municipio": "Caetité",
    "uf": "BA",
    "escola": "Grupo Escolar Luiz Viana Filho",
    "trecho": "Sinto-me orgulhosa \nDeste pequeno sertão\nQue traz em sua cultura\nReligião e tradição\nAcolhe com ternura\nToda população",
    "Latitude": -14.0633554,
    "Longitude": -42.5045883,
    "icon": "menina1.png"
  },
  {
    "Id": 397891,
    "aluno": "Luiz Fernando Pereira Ribeiro",
    "professor": "Valcy Maria De Oliveira Silva Moura",
    "municipio": "Piripá",
    "uf": "BA",
    "escola": "Escola Municipal Deputado Luiz Lago Cabral",
    "trecho": "Oh, minha amada Piripá!\nNem dá vontade de parar\nMas o tempo é curto \nE são tantas coisas pra contar",
    "Latitude": -14.9448146,
    "Longitude": -41.7259791,
    "icon": "menino2.png"
  },
  {
    "Id": 398788,
    "aluno": "Antonio Carlos Da Silva Filho",
    "professor": "Rita De Cássia Alves De França",
    "municipio": "Antonina do Norte",
    "uf": "CE",
    "escola": "Francisco Mendes E Silva Escola De Ensino Fundamental",
    "trecho": "As crianças da minha terra\nNão sabem ficar quietas.\nPra poderem se distrair,\nTodos brincam de peteca.",
    "Latitude": -6.7624289,
    "Longitude": -40.1300672,
    "icon": "menino1.png"
  },
  {
    "Id": 411846,
    "aluno": "Helder Freire De Oliveira",
    "professor": "Karla Valéria Alves Tavares De Sousa",
    "municipio": "Umari",
    "uf": "CE",
    "escola": "Manuel Pereira Eef Padre",
    "trecho": "Eu não vivi o engenho\nmas, ouvi muitas histórias\nposso ser só um menino\nmas, ta gravado na minha memória\nque a cultura de subsistência\ndesenhou essa trajetória.",
    "Latitude": -6.6393066,
    "Longitude": -38.7099,
    "icon": "menino2.png"
  },
  {
    "Id": 426537,
    "aluno": "José Luiz Ferreira Da Rocha",
    "professor": "Maria Da Conceição Ferreira",
    "municipio": "São Gonçalo do Amarante",
    "uf": "CE",
    "escola": "Joao Moreira Barroso Eef",
    "trecho": "O meu lugar é bem simples,\nMas aqui tem um museu!\nOnde guarda suas histórias,\nQue o tempo envelheceu.\nTem até casa de farinha\nQue o sustento nos deu.",
    "Latitude": -3.6107382,
    "Longitude": -38.983736,
    "icon": "menino1.png"
  },
  {
    "Id": 424160,
    "aluno": "Nathália Tupy Da Silva",
    "professor": "Ângela Maria Da Silva",
    "municipio": "Brasília",
    "uf": "DF",
    "escola": "E.C. Monjolo",
    "trecho": "Este cerrado quase virgem\nEsta natureza teimosa e forte\nCom pessoas de diferentes credos e raças\nQue vieram de vários lugares, do sul ao norte.",
    "Latitude": -15.7744228,
    "Longitude": -48.0772757,
    "icon": "menina2.png"
  },
  {
    "Id": 411564,
    "aluno": "Mariamell Bonelá Timbohiba",
    "professor": "Eliane Cristina Da Silva Fonseca",
    "municipio": "Conceição da Barra",
    "uf": "ES",
    "escola": "Emef Benonio Falcao De Gouvea",
    "trecho": "Os canários invadem a horta\nTambém tem araçari\nNa jaqueira vem papagaio \nNos coqueiros bem-te-vi.",
    "Latitude": -18.4499193,
    "Longitude": -39.9880231,
    "icon": "menina1.png"
  },
  {
    "Id": 391908,
    "aluno": "Marina Gujanski Schmitd",
    "professor": "Valéria Rodrigues Dos Santos Gonring",
    "municipio": "Santa Teresa",
    "uf": "ES",
    "escola": "E.M.E.I.E.F. Visconde De Inhaúma",
    "trecho": "Preste muita atenção\nDa minha Vila vou falar.\nÉ com muita perfeição\nQue você vai me ouvir contar.",
    "Latitude": -19.9378985,
    "Longitude": -40.6161623,
    "icon": "menina2.png"
  },
  {
    "Id": 425999,
    "aluno": "Dawidysom Pereira De Oliveira",
    "professor": "Maria Izabel De Oliveira Cardoso",
    "municipio": "Jesúpolis",
    "uf": "GO",
    "escola": "Escola Municipal Menino Jesus",
    "trecho": "Da cultura eu não reclamo\nPois é rica e sadia\nNesses versos eu declamo\nComo é nossa folia.",
    "Latitude": -15.9557337,
    "Longitude": -49.3798929,
    "icon": "menino1.png"
  },
  {
    "Id": 424185,
    "aluno": "Helkiane De Sousa Alves",
    "professor": "Angela Krauss Rocha",
    "municipio": "Goianira",
    "uf": "GO",
    "escola": "Escola Municipal Chico Martins",
    "trecho": "Hoje cidade das flores\nde orvalho e muitos amores,\ncidade de sonho sem igual,\nao lado da capital.",
    "Latitude": -16.5063518,
    "Longitude": -49.4310923,
    "icon": "menina2.png"
  },
  {
    "Id": 396602,
    "aluno": "Maria Eduarda Azevedo Da Cunha",
    "professor": "Lilian Sussuarana Pereira",
    "municipio": "Goiânia",
    "uf": "GO",
    "escola": "Escola Municipal Frei Demetrio Zanqueta",
    "trecho": "As flores espalhando no céu\nUm perfume doce como mel\nA coisa que impressiona quem vê\nSão os grandes e lindos Ipês",
    "Latitude": -16.6424613,
    "Longitude": -49.4025584,
    "icon": "menina1.png"
  },
  {
    "Id": 411.342,
    "aluno": "Eric Levi Cardoso Silva",
    "professor": "Agnaldo Melonio Aroucha",
    "municipio": "Penalva",
    "uf": "MA",
    "escola": "",
    "trecho": "Nessa ilha tem de tudo\nque se pode imaginar\nanimais, plantas e árvores\nque precisamos preservar.",
    "Latitude": -3.2899084,
    "Longitude": -45.1932821,
    "icon": "menino2.png"
  },
  {
    "Id": 409316,
    "aluno": "Lirian José Mendes Sousa Neto",
    "professor": "Maria Helena Araujo De Carvalho",
    "municipio": "Lago Verde",
    "uf": "MA",
    "escola": "Ui Balao Magico",
    "trecho": "Minha tranquila cidade\nComo é hospitaleira\nConhecida por seus lagos\nSão lindas suas mangueiras.",
    "Latitude": -4.0428566,
    "Longitude": -44.9405113,
    "icon": "menina1.png"
  },
  {
    "Id": 396016,
    "aluno": "Érica Cristina Américo Nogueira",
    "professor": "Cleonice Maria Nunes Morais",
    "municipio": "Delfim Moreira",
    "uf": "MG",
    "escola": "Em Filomena Peixoto Faria",
    "trecho": "A produção foi tão grande\nQue a fruta ficou importante\nInventariaram a sopa de marmelo\nDegustada por muitos visitantes.",
    "Latitude": -22.5030799,
    "Longitude": -45.2922691,
    "icon": "menina2.png"
  },
  {
    "Id": 394912,
    "aluno": "Gabriela Pires Rocha",
    "professor": "Denise Abadia Pereira Oliveira",
    "municipio": "São Gotardo",
    "uf": "MG",
    "escola": "Escola Municipal Professor Balena",
    "trecho": "Vai começar tudo de novo!\nPor sinal é ano olímpico \nÉ hora de poetizarAs palavras movimentar\nE meu lugar destacar.",
    "Latitude": -19.3130851,
    "Longitude": -46.0670008,
    "icon": "menina1.png"
  },
  {
    "Id": 418630,
    "aluno": "Nicole Rodrigues Florentino",
    "professor": "Terezinha Lima Da Silva",
    "municipio": "Belo Horizonte",
    "uf": "MG",
    "escola": "Escola Municipal Jose Maria Alkmim",
    "trecho": "Da janela de minha casa,\nVejo a realidade de nossa sociedade,\nGente que não tem nada,\nMas ainda resta a fé.",
    "Latitude": -19.9023386,
    "Longitude": -44.1041379,
    "icon": "menina2.png"
  },
  {
    "Id": 388653,
    "aluno": "Rafael Gonçalves Ragazzo",
    "professor": "Wilza Luzia De Oliveira",
    "municipio": "Guapé",
    "uf": "MG",
    "escola": "Em Deputado Joaquim De Melo Freire",
    "trecho": "Hoje Santo Antônio é uma das maiores comunidades\nLugar de gente batalhadora e de muitas conquistas\nLocalizada no município de Guapé uma linda cidade\nBanhadas pelas águas de Furnas que para o povo traz muita felicidade.",
    "Latitude": -19.8592579,
    "Longitude": -43.9983187,
    "icon": "menino1.png"
  },
  {
    "Id": 420478,
    "aluno": "Rhaissa Kimberly Dos Santos Silva",
    "professor": "Aldinéa Farias",
    "municipio": "Novo Cruzeiro",
    "uf": "MG",
    "escola": "Em Professora Maria Das Dores Gomes De Souza",
    "trecho": "O lugar onde eu vivo\nTem pessoas bem legais\nCidade de Novo Cruzeiro\nEstado de Minas Gerais",
    "Latitude": -17.4658888,
    "Longitude": -41.8917774,
    "icon": "menina2.png"
  },
  {
    "Id": 396475,
    "aluno": "Maria Eduarda Campos De Oliveira",
    "professor": "Sebastião Aparecido Dos Santos Souza",
    "municipio": "Ribas do Rio Pardo",
    "uf": "MS",
    "escola": "Em Sao Sebastiao",
    "trecho": "Hoje só tenho recordação \nMas chorar não posso não,\nAo ver o pobre ribeirão,\nAgonizando nesse chão.",
    "Latitude": -20.4449706,
    "Longitude": -53.7680658,
    "icon": "menina1.png"
  },
  {
    "Id": 403707,
    "aluno": "Miguel Medina Soares",
    "professor": "Patricia Lima Figueiredo Ortelhado",
    "municipio": "Bela Vista",
    "uf": "MS",
    "escola": "Ee Castelo Branco",
    "trecho": "Tem belezas naturais \nna estrada Apaporé\nrios com suas águas cristalinas\nnos chama para molhar os pés.",
    "Latitude": -22.1044456,
    "Longitude": -56.5528765,
    "icon": "menino2.png"
  },
  {
    "Id": 424859,
    "aluno": "Júlia Quérem Santana Machado",
    "professor": "Dilza Zampaoni Congio",
    "municipio": "Campo Novo do Parecis",
    "uf": "MT",
    "escola": "Escola Municipal 04 De Julho",
    "trecho": "Terra de tantos sonhos e realizaçõesS\neu progresso me faz feliz.\nSe quer saber qual é esse lugar,\nÉ Campo Novo do Parecis.",
    "Latitude": -13.6596304,
    "Longitude": -57.9201575,
    "icon": "menina1.png"
  },
  {
    "Id": 428.035,
    "aluno": "Maria Angela Dias Santos",
    "professor": "Antonielle Da Silva Martins",
    "municipio": "Chapada dos Guimarães",
    "uf": "MT",
    "escola": "",
    "trecho": "Então decidi contar,\nComo vim parar neste lugar.\nTambém serei bem sincera\nNunca morei em outro lugar.",
    "Latitude": -15.4612597,
    "Longitude": -55.7621535,
    "icon": "menina2.png"
  },
  {
    "Id": 404419,
    "aluno": "Mayra Lourrana De Souza Silva",
    "professor": "Edio Wilson Soares Da Silva",
    "municipio": "Vitória do Xingu",
    "uf": "PA",
    "escola": "E M E I E F Daniel Berg",
    "trecho": "Essa quero pintar e ler\nNo meu velho caderno\nPra ficar de tom eterno\nPra que a paz possa pintarna terra e no teto o prazer\nde ver a tela do meu lugar.",
    "Latitude": -3.1720677,
    "Longitude": -52.2694764,
    "icon": "menina1.png"
  },
  {
    "Id": 417736,
    "aluno": "Pedro Lucas Silva De Jesus",
    "professor": "Neilza Monteiro",
    "municipio": "Rondon do Pará",
    "uf": "PA",
    "escola": "E M E F Elidia Maria Dos Santos",
    "trecho": "Essa é minha história,\nEsse é o meu quintal,\nMeu mundo sem igual,\nDe brincadeiras, batalhas e vitórias",
    "Latitude": -4.7831863,
    "Longitude": -48.0938345,
    "icon": "menino2.png"
  },
  {
    "Id": 388523,
    "aluno": "Aryel Sammy Silva Alves",
    "professor": "Maria Das Vitorias De Oliveira Silva Farias",
    "municipio": "Cuité",
    "uf": "PB",
    "escola": "Emef Professora Eudocia Alves Dos Santos",
    "trecho": "Caminho de vez em quando\nBrinco com meus amigos\nPasseio de bicicleta\nSei que não corro perigo\nMinha vida é divertidaDá pra fazer um livro.",
    "Latitude": -6.4855303,
    "Longitude": -36.1627096,
    "icon": "menino1.png"
  },
  {
    "Id": 390001,
    "aluno": "Maria Aparecida Vitória Cordeiro De Oliveira",
    "professor": "Neusa Bezerra Da Silva",
    "municipio": "São José de Princesa",
    "uf": "PB",
    "escola": "Emeif Alzira Moura Magalhães",
    "trecho": "São José é sossegado\nlugar de tranquilidade\nporém cheio de alegria\nquem passa por aqui\nde felicidade se contagia.",
    "Latitude": -7.7002019,
    "Longitude": -38.2324763,
    "icon": "menina2.png"
  },
  {
    "Id": 400279,
    "aluno": "Jefferson Kauãm Lopes De Santana",
    "professor": "Maria Natália De Araújo E Silva Cordeiro",
    "municipio": "Camaragibe",
    "uf": "PE",
    "escola": "Escola Municipal Jardim Primavera",
    "trecho": "De uma aldeia de camarás,\nCom um rio correndo pro mar.\nDe um engenho de canaviais,\nQue nasceu este meu lugar.",
    "Latitude": -7.9812166,
    "Longitude": -35.0686934,
    "icon": "menino1.png"
  },
  {
    "Id": 408910,
    "aluno": "Maria Bruniele Dos Santos",
    "professor": "Edeli Marques De Souza",
    "municipio": "Petrolândia",
    "uf": "PE",
    "escola": "Escola Municipal Itamar Leite",
    "trecho": "Na minha rua\nMultiplico amigos,\nQuando ando de bicicleta\nLevo juntos comigo.",
    "Latitude": -8.9618386,
    "Longitude": -38.2303344,
    "icon": "menina2.png"
  },
  {
    "Id": 390561,
    "aluno": "Maysa Evelyn Nascimento Araujo",
    "professor": "Maria Do Perpetuo Socorro Granja Campos Vieceli",
    "municipio": "Petrolina",
    "uf": "PE",
    "escola": "Escola Municipal Felix Manoel Dos Santos",
    "trecho": "E assim finalizo a minha rima,\ncom enorme e grande alegria.\nDe contar a história de uma pequena vila.\nQue hoje, é conhecia como Petrolina!",
    "Latitude": -9.3726955,
    "Longitude": -40.545069,
    "icon": "menina1.png"
  },
  {
    "Id": 389555,
    "aluno": "Débora Raquel De Sousa Reis",
    "professor": "Cristiane Raquel Silvia Burlamaque Evangelista",
    "municipio": "Teresina",
    "uf": "PI",
    "escola": "Escola Municipal Lindamir Lima",
    "trecho": "Na cidade de Teresina\nTe apresento meu lugar.\nNo topo dos altos morros,\nPerto do céu alcançar,\nAbaixo dos raios de sol:\nUm bairro irá encontrar.",
    "Latitude": -5.1856982,
    "Longitude": -43.0643793,
    "icon": "menina2.png"
  },
  {
    "Id": 392303,
    "aluno": "Kalleo Klark Buenos Aires Carneiro",
    "professor": "Léia Do Prado Teixeira",
    "municipio": "Luzilândia",
    "uf": "PI",
    "escola": "Unid Esc Tia Zuleide",
    "trecho": "Moro em uma cidade\nOnde xote, baião e forró,\nTradicionalmente embalam\nO vovô e a vovó.",
    "Latitude": -3.4686502,
    "Longitude": -42.3808883,
    "icon": "menino1.png"
  },
  {
    "Id": 387990,
    "aluno": "Gabriel Eugênio Gotardo",
    "professor": "Bruna Luiza Bolzani Mafessoni",
    "municipio": "Chopinzinho",
    "uf": "PR",
    "escola": "Visao Do Futuro E R M Ei Ef",
    "trecho": "Moro em uma cidade\nOnde xote, baião e forró,\nTradicionalmente embalam\nO vovô e a vovó.",
    "Latitude": -25.8552379,
    "Longitude": -52.5505246,
    "icon": "menino2.png"
  },
  {
    "Id": 411728,
    "aluno": "Hector Augusto Tralescki Leodato",
    "professor": "Vanessa Pereira Rodrigues Quaresma",
    "municipio": "Almirante Tamandaré",
    "uf": "PR",
    "escola": "Bortolo Lovato E M Ef",
    "trecho": "UM LUGAR DE MUITAS RIQUEZAS\nQUE NOS ENCANTA COM SUA BELEZA.\nHOJE NOS RECORDAMOS COM MUITA CLAREZA\nDAS LENDAS QUE SURGIRAM NESTA REDONDEZA.",
    "Latitude": -25.3041882,
    "Longitude": -49.4108369,
    "icon": "menino1.png"
  },
  {
    "Id": 410226,
    "aluno": "Kaiky Da Silva Rosa",
    "professor": "Fabiola De Fatima Vicentim",
    "municipio": "Pitanga",
    "uf": "PR",
    "escola": "Afonsina M Sebrenski E M Ei Ef",
    "trecho": "Nosso valente agricultor\nSol a sol mantém a cidade.\nDo ouro dos seus milharais\nVem o sustento para a sociedade.",
    "Latitude": -25.3160795,
    "Longitude": -49.2875389,
    "icon": "menino2.png"
  },
  {
    "Id": 410285,
    "aluno": "Samara De Souza Melo",
    "professor": "Ionar De Oliveira Pedro",
    "municipio": "Mangaratiba",
    "uf": "RJ",
    "escola": "",
    "trecho": "Gosto das águas da cachoeira\nque correm pelas veias.\nDas pedras que a água engole\nDas árvores que embaixo posso ficar\nDo verde que se enrola nos postes\ncomo se fossem cobras.",
    "Latitude": -22.9721002,
    "Longitude": -44.0975675,
    "icon": "menina1.png"
  },
  {
    "Id": 415924,
    "aluno": "Kethelyn De Mélo Domingos",
    "professor": "Tatiana Millar Polydoro",
    "municipio": "Saquarema",
    "uf": "RJ",
    "escola": "Escola Municipal Clotilde De Oliveira Rodrigues",
    "trecho": "SINTO UMA ALEGRIA PROFUNDA\nQUANDO O MAR CONSIGO DOMINAR.\nE LOGO PENSO:\nQUE COISA BOA É \"SAQUAREMAR\"!",
    "Latitude": -22.871109,
    "Longitude": -42.6643645,
    "icon": "menina2.png"
  },
  {
    "Id": 398132,
    "aluno": "Davi Henrique Teófilo De Azevedo Lima",
    "professor": "João Soares Lopes",
    "municipio": "Bom Jesus",
    "uf": "RN",
    "escola": "Ee Natalia Fonseca Ens 1 Grau",
    "trecho": "Lá por detrás das árvores vinha o sol\nIluminando a rua da minha casa,\nO astro esplêndido quente feito brasa,\n Levantava no céu feito um farol\nE o belo cantar de um rouxinol",
    "Latitude": -5.9862374,
    "Longitude": -35.5919794,
    "icon": "menino1.png"
  },
  {
    "Id": 394501,
    "aluno": "José Guilherme Oliveira De Araújo",
    "professor": "Marize De Vasconcelos Medeiros",
    "municipio": "Natal",
    "uf": "RN",
    "escola": "E. M. Professora Laura Maia",
    "trecho": "no meu lugar \ntem cajú beijú\ne tijuaçú\naqui se dorme de rede\ntem coco pra matar a sede",
    "Latitude": -5.7997439,
    "Longitude": -35.2922852,
    "icon": "menino2.png"
  },
  {
    "Id": 391948,
    "aluno": "Josenildo De França",
    "professor": "Milton César Apolinário",
    "municipio": "Touros",
    "uf": "RN",
    "escola": "Ee Cel Antonio Do Lago Ens 1 Grau",
    "trecho": "Eu só vim pra lhe contar\nSobre como a cultura\nÉ divertida neste lugar\nTem folclore, as Bandeirinhas\nA dançar e muito arraiá.",
    "Latitude": -5.1952762,
    "Longitude": -35.4707181,
    "icon": "menino1.png"
  },
  {
    "Id": 415714,
    "aluno": "Julia Silva Jovino",
    "professor": "Dalvania Patricia Ribeiro De Souza",
    "municipio": "Vilhena",
    "uf": "RO",
    "escola": "Emef Angelo Mariano Donadon",
    "trecho": "Carrego no meu coração\nEssa cidadezinha de Rondônia\nCom sua beleza e natureza\nConhecida como \"Portal da Amazônia\".",
    "Latitude": -12.7587635,
    "Longitude": -60.1690505,
    "icon": "menina2.png"
  },
  {
    "Id": 395165,
    "aluno": "Taciana Nascimento",
    "professor": "Francisca De Salis Araújo",
    "municipio": "Porto Velho",
    "uf": "RO",
    "escola": "Eeefm Dom Pedro I",
    "trecho": "Aqui nossa cultura é diferente\nTem todos os anos\nFlor do Maracujá.\nUma festa variada\ncom quadrilhas e boi-bumbá.\nTêm comidas deliciosas\nprincipalmente o vatapá.",
    "Latitude": -8.9804644,
    "Longitude": -65.6451409,
    "icon": "menina1.png"
  },
  {
    "Id": 420144,
    "aluno": "Marcel Aleixo Da Silva",
    "professor": "Josane Chagas Da Silva",
    "municipio": "Boa Vista",
    "uf": "RR",
    "escola": "Escola Municipal Indígena Francisca Gomes Da Silva",
    "trecho": "Carrego no meu coração\nEssa cidadezinha de Rondônia\nCom sua beleza e natureza\nConhecida como \"Portal da Amazônia\".",
    "Latitude": 2.8073684,
    "Longitude": -60.7666026,
    "icon": "menino2.png"
  },
  {
    "Id": 393193,
    "aluno": "Nataly Ströher Bitello",
    "professor": "Gilce Schvambach",
    "municipio": "Capela de Santana",
    "uf": "RS",
    "escola": "Esc Mun Ens Fun Nossa Senhora Das Gracas",
    "trecho": "Capela de Santana, as tuas noites\nAs vezes escuridão, outras vezes iluminadas\nAs vezes ilusão, outras vezes enamoradas\nAqui é o meu lugar...Meu viver\nOnde cresço e aprendo escrever",
    "Latitude": -29.7108873,
    "Longitude": -51.4404072,
    "icon": "menina1.png"
  },
  {
    "Id": 394193,
    "aluno": "Stéfani Brenda Racoski",
    "professor": "Rosmari Teresinha Dariva Pelin",
    "municipio": "Erechim",
    "uf": "RS",
    "escola": "Emef Fund Jaguarete",
    "trecho": "Minha cidade tem um castelo \nQue vivo a admirar\nNão tem rei nem rainha \nE é lá que vivo a poetizar",
    "Latitude": -27.6418603,
    "Longitude": -52.3039763,
    "icon": "menina2.png"
  },
  {
    "Id": 414323,
    "aluno": "Vitória Eduarda Ferraz Frutuoso",
    "professor": "Cíntia Cristina Zanini",
    "municipio": "São Leopoldo",
    "uf": "RS",
    "escola": "Emef Professora Dilza Flores Albrecht",
    "trecho": "Ronca ronca o motor\nBrinquedo de carrossel\nSegue a rota da vida\nDesenrola o carretel",
    "Latitude": -29.7509082,
    "Longitude": -51.2131745,
    "icon": "menina1.png"
  },
  {
    "Id": 390055,
    "aluno": "Antony Novack Bertan",
    "professor": "Joyciane Vidal Gonçalves",
    "municipio": "Criciúma",
    "uf": "SC",
    "escola": "Emef Jorge Da Cunha Carneiro",
    "trecho": "Do lado da minha casa\nPassa um rio encantado\nQuieto, manso e pequeno\nonde navego meu barquinho acalentado.",
    "Latitude": -28.7279026,
    "Longitude": -49.5075809,
    "icon": "menino2.png"
  },
  {
    "Id": 411467,
    "aluno": "Clara Cristina Garcia",
    "professor": "Odete Inês Kappaun",
    "municipio": "São João Batista",
    "uf": "SC",
    "escola": "Eeb Prof Lidia Leal Gomes",
    "trecho": "Neste lugar tem,\nBrincadeiras e alegria\nMas amanheceu o dia\nEstá na hora de trabalhar,\nTodos acordados\nVamos a terra arar.",
    "Latitude": -27.2739859,
    "Longitude": -48.8773825,
    "icon": "menina1.png"
  },
  {
    "Id": 393473,
    "aluno": "Heloisa Aparecida Ribas",
    "professor": "Luciana Aparecida Skibinski",
    "municipio": "Matos Costa",
    "uf": "SC",
    "escola": "Ce Professora Ana Maria De Paula",
    "trecho": "Este chão altaneiro\nQue tão bem eu quero\nTeve seu passado marcado\nPela estrada de ferro.",
    "Latitude": -26.4713394,
    "Longitude": -51.1593445,
    "icon": "menina2.png"
  },
  {
    "Id": 395089,
    "aluno": "Luana Orguinski Kozoriz",
    "professor": "Rita Jubanski Do Nascimento",
    "municipio": "Santa Terezinha",
    "uf": "SC",
    "escola": "Escola Basica Municipal Alto Rio Da Anta",
    "trecho": "Meu caro leitor,\nA você quero contar.\nA historia de João maria, \nQue é lenda no meu lugar.",
    "Latitude": -26.782519,
    "Longitude": -50.0162925,
    "icon": "menina1.png"
  },
  {
    "Id": 411009,
    "aluno": "Wanisy Letícia Benvida Rodrigues",
    "professor": "Ericles Da Silva Santos",
    "municipio": "Japaratuba",
    "uf": "SE",
    "escola": "Esc Mul Vereador Joao Prado",
    "trecho": "Pa-ra-pa-pa-pow-pow\nA festança é esperada\nCarrossel pra criançada\nSão nove grandes noitadas\nHaja dinheiro pra gastar",
    "Latitude": -10.5853251,
    "Longitude": -36.9508551,
    "icon": "menina2.png"
  },
  {
    "Id": 398493,
    "aluno": "Ana Ketis De Carvalho",
    "professor": "Vilma Da Silva Pecegueiro",
    "municipio": "Americana",
    "uf": "SP",
    "escola": "Paulo Freire Emef",
    "trecho": "Depois de todas essas dicas,\nNão tem como não me achar.\nE só reservar um tempinho, \nPara vir me visitar!",
    "Latitude": -22.7238733,
    "Longitude": -47.3608195,
    "icon": "menina1.png"
  },
  {
    "Id": 413488,
    "aluno": "Emanuelly Araújo De Oliveira",
    "professor": "Claudia Da Silva Gomes Sicchieri",
    "municipio": "Sertãozinho",
    "uf": "SP",
    "escola": "Emeif Prefeita Maria Neli Mussa Tonielo",
    "trecho": "De pés descalços pela Terra\nNo museu que guarda tesouro\nAndejo sobre histórias do passado\nE o nascimento do verde ouro",
    "Latitude": -21.1048283,
    "Longitude": -48.1688907,
    "icon": "menina2.png"
  },
  {
    "Id": 395164,
    "aluno": "Estêvão Miguel Marques",
    "professor": "Thaís Ignês Reis De Souza Pagliarini",
    "municipio": "Itapira",
    "uf": "SP",
    "escola": "Marco Antonio Libano Dos Santos Dr Emeb",
    "trecho": "Comemorei com minha família,\nO novo lar em Itapira.\nPenso em quem não conseguiu\nE sua família perdeu.\nFico triste!\nNão têm sorte como eu!",
    "Latitude": -22.4337258,
    "Longitude": -46.8445006,
    "icon": "menino1.png"
  },
  {
    "Id": 396397,
    "aluno": "Giovanna Oliveira Santos",
    "professor": "Maria De Lourdes Fontes Do Nascimento Dantas",
    "municipio": "Guarulhos",
    "uf": "SP",
    "escola": "Roberto Hipolito Da Costa Brigadeiro Do Ar",
    "trecho": "Guarulhos, cidade grande,\nTanta coisa quero falar...\nEste lugar tão importante,\nNos meus versos, vou homenagear.",
    "Latitude": -23.4442507,
    "Longitude": -46.5354676,
    "icon": "menina2.png"
  },
  {
    "Id": 409056,
    "aluno": "Gustavo Gabriel Domingues",
    "professor": "Vanda Valéria Morales Fassina",
    "municipio": "Valinhos",
    "uf": "SP",
    "escola": "Marli Aparecida Borelli Bazetto Professora Emeb",
    "trecho": "Por gerações\nEste lugar irá nos marcar\nAgora tenho um irmão\nQuantas histórias para contar",
    "Latitude": -22.9858589,
    "Longitude": -47.088841,
    "icon": "menino1.png"
  },
  {
    "Id": 407083,
    "aluno": "Jasmyn Da Silva Oliveira",
    "professor": "Angra Rocha Noleto",
    "municipio": "Araguaína",
    "uf": "TO",
    "escola": "Em Gentil Ferreira Brito",
    "trecho": "Temos córregos e riachos\nNos quais vamos refrescar\nBanhamos pulamos, brincamos\nSem medo de machucar.",
    "Latitude": -7.2107711,
    "Longitude": -48.2874072,
    "icon": "menina2.png"
  },
  {
    "Id": 424832,
    "aluno": "Yêda Maria Oliveira Aguiar",
    "professor": "Cleide Sonia Dutra Souza Pereira",
    "municipio": "Pequizeiro",
    "uf": "TO",
    "escola": "E.M Ayrton Senna",
    "trecho": "No presente temos pioneiros\nQue nos contam dos progressos\nNas rodas de conversas\nNas calçadas ou botecos",
    "Latitude": -8.593589,
    "Longitude": -48.9418767,
    "icon": "menina1.png"
  }
]
